[
    { "name": "CETRAM", "position": { "lat": 22.08193, "lng": -100.8782389 } },
    { "name": "Sendero", "position": { "lat": 22.1290083, "lng": -100.9231139 } },
    { "name": "CREE", "position": { "lat": 22.1332972, "lng": -100.9295583 } },
    { "name": "Alameda", "position": { "lat": 22.1551139, "lng": -100.9712861 } },
    { "name": "Saucito", "position": { "lat": 22.1843444, "lng": -101.0019611 } }
  ]
  